idFechaConstruccion,sigla,nombreAeropuerto,categoria,tipo,departamento,municipio,latitud,longitud,propietario,longitudPista,anchoPista,pbmo,elevacion
2013-4,7FU,LA ESCONDIDA,Aeródromo,Fumigación,Meta,Puerto Gaitán,4.6108,-71.1935,PALMAS SICARARE S.A.S.,1300,18,5000,564
2009-5,7FW,MORICHITO,Aeródromo,Privado,Casanare,Hato Corozal,5.9188,-71.7932,CARMEN NARANJO,800,15,3500,720
2013-11,7FX,CAROLINA DEL PRINCIPE,Aeródromo,Público,Antioquia,Carolina,6.7248,-75.2909,MUNICIPIO,400,16,1000,6004
2013-3,7FY,DUBAI,Aeródromo,Privado,Córdoba,Ayapel,8.296,-75.0307,ANDRES D. LONDOÑO T.,350,10,500,82
2012-10,7GA,BARU - HIDROPUERTO,Aeródromo,Privado,Bolívar,Cartagena de Indias,10.2321,-75.5877,MAURICIO E. VASQUEZ M.,450,20,500,0
2009-10,7GB,LA CAROLINA,Aeródromo,Privado,Cesar,El Paso,9.528,-73.7866,JORGE AGUDELO RESTREPO,350,10,500,690
2012-8,7GC,SAN FELIPE DEL PAUTO,Aeródromo,Privado,Casanare,Trinidad,5.2032,-70.8951,AGRAS S.A.S,720,10,3000,3125
2013-5,7GD,VELASQUEZ,Aeródromo,Privado,Boyacá,Puerto Boyacá,5.9482,-74.4575,FAC,1500,18,10000,617
2013-5,7GF,LA UNION,Aeródromo,Privado,Casanare,Paz de Ariporo,5.6283,-70.7032,MARTHA Y. VARGAS DE R.,640,18,3500,335
2013-5,7GG,LA ILUSION,Aeródromo,Privado,Casanare,Maní,4.5805,-72.4282,SIGRA S.A.,890,18,3500,574
2013-12,7GH,LA VENTUROSA,Aeródromo,Público,Vichada,Puerto Carreño,6.1391,-68.7779,MUNICIPIO,1000,12,9500,246
2013-7,7GI,GUAYABAL DEL CRAVO,Aeródromo,Privado,Casanare,Orocué,4.7223,-71.5943,KLAUS PUTH ARANGUREN,750,12,2500,442
2010-8,7GK,LAS VIOLETAS- CA,Aeródromo,Privado,Meta,Castilla la Nueva,3.8519,-73.7286,FRANCELINA CADENA,350,10,500,609
2013-9,7GN,LOS MANGOS,Aeródromo,Privado,Córdoba,Ayapel,8.2956,-75.0987,MANUEL LOPEZ ORTEGA,200,10,500,90
2012-10,7HA,EL CONDOR,Aeródromo,Privado,Tolima,Flandes,4.2595,-74.8308,AEROTURBO DE COLOMBIA,280,10,500,992
2012-11,7HB,HOTEL SAN DIEGO,Aeródromo,Privado,Meta,Puerto Gaitán,3.7693,-71.8179,MADYGAN S.A.S.,800,18,4000,725
2013-7,7HC,EL CAFUCHE,Aeródromo,Privado,Vichada,La Primavera,5.3152,-70.0184,ANDRES CARVAJAL MOLINA,850,18,4000,384
2012-10,7HE,GUACHARACAS (COLOMBAIMA),Aeródromo,Privado,Cundinamarca,Beltrán,4.7371,-74.8021,EMPRESA GUACHARACAS,700,10,3000,797
2012-12,7HF,GAVILAN DE LA PASCUA,Aeródromo,Público,Vichada,La Primavera,5.1166,-70.3806,RESGUARDO INDIGENA ORIPGA,1200,15,3500,419
2013-5,7HG,DOROTEA B1,Aeródromo,Privado,Casanare,Paz de Ariporo,5.5122,-71.0248,NEW GRANADA ENERGY,1000,18,2000,404
2013-9,7HH,HORIZONTES,Aeródromo,Privado,Santander,Piedecuesta,7.0017,-73.1037,DESARROLLOS METROPOLITANOS,610,12,3500,4195
2013-5,7HJ,MACOLLA,Aeródromo,Privado,Casanare,Maní,4.7713,-72.0714,GRAMERCY S.A.S.,950,18,5000,548
2013-5,7HK,MULETOS- CA,Aeródromo,Privado,Casanare,Maní,4.5549,-72.1753,MULETOS S.A.S.,350,10,500,790
2013-5,7HL,LA MAPORA,Aeródromo,Privado,Casanare,Pore,5.6459,-71.9887,PAULA ANDREA CANO A.,350,10,500,497
2013-9,7HM,LLANO CAUCHO,Aeródromo,Privado,Vichada,Cumaribo,4.4355,-70.6954,AGROINDUSTRIALES DEL ORIENTE,900,15,12000,434
2013-9,7HN,ARMENIA,Aeródromo,Privado,Casanare,Paz de Ariporo,5.787,-70.1835,LUIS JOSE CALA LOPEZ,800,15,3000,380
2013-12,7HR,RANCHO COLIBRI - CA,Aeródromo,Privado,Valle del Cauca,Roldanillo,4.4586,-76.1258,HENRY D. F. ORTIZ SILVA,215,10,500,3083
2012-3,7NP,EL CAIRANO,Aeródromo,Privado,Bolívar,Santa Catalina,10.7124,-75.2649,CARLOS E. GUERRERO,215,10,400,30
2012-8,7NR,NUEVA ROMA,Aeródromo,Privado,Magdalena,Plato,9.968,-74.3303,JORGE SOLANO RECIO,550,10,3000,462
2012-9,7NS,JAGUAR,Aeródromo,Privado,Meta,Puerto Gaitán,4.2161,-72.0275,CEPCOLSA,1200,23,2000,650
2012-10,7NT,OCELOTE,Aeródromo,Privado,Meta,Puerto Gaitán,4.2751,-71.6123,HOCOL S.A.,1200,20,2000,690
2004-6,9AB,GETSEMANI,Aeródromo,Público,Casanare,Hato Corozal,6.1506,-70.0294,MUNICIPIO,800,14,2000,304
2013-10,9AD,URACA - CA.,Aeródromo,Privado,Atlántico,Puerto Colombia,11.0062,-74.9224,NORA CARVAJALINO,320,10,800,204
2013-10,9AH,SAN ROQUE  - CA.,Aeródromo,Privado,Valle del Cauca,San Pedro,4.0039,-76.2209,IRMA HERNANDEZ DE M.,235,10,400,3366
2011-9,9AJ,SAN LUIS DE PACA,Aeródromo,Público,Vaupés,Mitú,0.8744,-70.3464,RESGUARDO INDIGENA,424,10,1650,590
1997-9,9AK,CANANARI,Aeródromo,Público,Vaupés,Mitú,0.545,-70.9286,RESGUARDO INDIGENA,420,20,1650,780
2013-5,9AN,MARAREY,Aeródromo,Privado,Casanare,Orocué,4.8281,-71.0808,JULIAN VALENCIA I. Y OTROS,700,15,4800,498
2013-5,9AO,SANTA CLARA,Aeródromo,Fumigación,Casanare,Sabanalarga,4.4172,-72.7744,ARMANDO SANCHEZ M.,800,10,2500,610
1997-9,9AR,SAN PABLO,Aeródromo,Público,Vaupés,Mitú,-0.7831,-70.3228,RESGUARDO INDIGENA,510,10,1650,550
2013-4,9AT,COROCITO,Aeródromo,Privado,Meta,Puerto López,3.9507,-72.2186,AGROINVERSIONES COROCITO,980,10,3000,544
2012-10,9AU,LAS FURIAS,Aeródromo,Fumigación,Casanare,Nunchía,5.4039,-72.1228,MAURICIO CALA PEREZ,800,10,2000,688
2012-8,9AV,EL NOGAL,Aeródromo,Fumigación,Meta,Villavicencio,3.9883,-73.2994,GLORIA L.TIUSO,610,10,2000,817
2011-5,9AX,SANTA CRUZ,Aeródromo,Fumigación,Meta,Puerto López,4.1318,-73.1814,JULIO STRAUCH D.,650,10,2000,659
2008-7,9BA,CURUMANI,Aeródromo,Fumigación,Cesar,Curumaní,9.2222,-73.5722,MUNICIPIO,900,23,2000,164
2012-2,9BB,SAN MIGUEL,Aeródromo,Fumigación,Meta,Puerto López,4.1069,-72.89,ELIZABETH CRUZ BULLA,670,10,2000,803
2013-11,9BC,CANTADELICIAS,Aeródromo,Público,Tolima,Alpujarra,3.3873,-74.9338,MUNICIPIO,700,15,12200,4213
2012-4,9BE,LAS VEGAS,Aeródromo,Privado,Casanare,Paz de Ariporo,6.0072,-71.2842,ALEIDA JERONIMO NAVAS,740,15,3500,430
2011-3,9BF,LA FRANCIA,Aeródromo,Privado,Cesar,El Paso,9.6394,-73.5282,SOCIEDAD COLOMBIAN NATURAL RESOURCES,1100,18,2000,213
2010-2,9BI,SAN FELIPE,Aeródromo,Privado,Casanare,Orocué,5.1037,-71.8425,MARIA LUCILA REYES ORDOÑEZ,700,14,2000,554
2009-6,9BK,JULIAN,Aeródromo,Fumigación,Meta,Cabuyaro,4.2711,-72.9869,HERNANDO JIMENEZ,800,10,2500,735
2012-11,9BL,LOS HALCONES,Aeródromo,Privado,Valle del Cauca,Bugalagrande,3.9178,-76.3206,DIEGO TORRES NUÑEZ,350,10,500,3232
2010-1,9BN,EL SOÑADOR,Aeródromo,Fumigación,Casanare,Aguazul,5.2299,-72.4528,GLORIA M. ALVIRA R.,700,14,2000,865
2013-2,9BP,EL CONCHAL - CA,Aeródromo,Privado,Valle del Cauca,El Cerrito,3.7273,-76.3902,ARMANDO ARAGON NAVIA,200,10,400,3139
2013-9,9BR,SEVILLA,Aeródromo,Privado,Casanare,Hato Corozal,5.9234,-71.7139,HELI CALA LOPEZ,700,15,3000,682
2012-10,9BT,ASA SAN MARTIN,Aeródromo,Fumigación,La Guajira,Riohacha,11.2889,-73.1756,ASA S EN C,830,15,4500,49
2013-5,9BW,LA FAZENDA,Aeródromo,Fumigación,Meta,Puerto López,4.3263,-72.2208,ALIAR S.A.,1200,12,5000,568
2011-2,9BX,LA ESTRELLA-CA.,Aeródromo,Privado,Meta,San Martín,3.4802,-73.3276,CLUB LA LIBELULA,300,75,500,787
2012-9,9CA,LAS AGUILAS -CA,Aeródromo,Privado,Valle del Cauca,Yumbo,3.5134,-76.4931,SERESTEL S.A.,320,10,500,3100
2006-10,9CB,CAMARUCOS,Aeródromo,Público,Casanare,Paz de Ariporo,5.8754,-70.6583,ALCALDIA,1200,15,2000,367
2006-10,9CC,EL TOTUMO,Aeródromo,Público,Casanare,Paz de Ariporo,5.9387,-71.2217,MUNICIPIO,520,15,2000,476
2006-10,9CD,VARSOVIA,Aeródromo,Público,Casanare,Paz de Ariporo,5.849,-70.3648,MUNICIPIO,550,15,2000,328
2006-10,9CE,LA HERMOSA,Aeródromo,Público,Casanare,Paz de Ariporo,5.5307,-70.4497,MUNICIPIO,884,15,2000,338
2006-10,9CF,SAN ESTEBAN,Aeródromo,Público,Casanare,Paz de Ariporo,5.4441,-70.8352,MUNICIPIO,580,15,2000,377
2007-10,9CG,SAN JOSE DEL ARIPORO,Aeródromo,Público,Casanare,Paz de Ariporo,6.0475,-70.0128,MUNICIPIO,570,15,2000,318
2006-10,9CH,COLINERAS,Aeródromo,Público,Casanare,Paz de Ariporo,6.0713,-70.3678,MUNICIPIO,410,15,2000,338
2006-10,9CI,LA CAIMANA,Aeródromo,Público,Casanare,Paz de Ariporo,6.052,-70.8134,MUNICIPIO,615,15,2000,400
2013-5,9CJ,EMAUS,Aeródromo,Privado,Casanare,San Luis de Palenque,5.1483,-71.0453,LUIS F. CASTILLO SANTOS,740,10,2500,430
2006-10,9CK,SANTA MARIA DEL CAFÉ,Aeródromo,Público,Casanare,Hato Corozal,6.1111,-70.9888,MUNICIPIO,510,15,2000,427
2017-7,9CL,LA VENTUROSA,Aeródromo,Público,Casanare,San Luis de Palenque,5.2388,-71.3035,MUNICIPIO,620,15,2000,459
2006-10,9CM,MIRAMAR DE GUANAPALO,Aeródromo,Público,Casanare,San Luis de Palenque,5.0541,-71.0012,MUNICIPIO,425,15,2000,394
2006-11,9CP,LA SALVACION,Aeródromo,Público,Casanare,Paz de Ariporo,5.9988,-70.6316,ALCALDIA,700,15,2000,384
2013-7,9CQ,LOMA GRANDE - CA,Aeródromo,Privado,Córdoba,Ayapel,8.2937,-75.1176,O.V. OROZCO Y CIA. S.C.A.,350,10,400,1280
2013-2,9CR,EL CAPRICHO,Aeródromo,Privado,Meta,Puerto Gaitán,4.2018,-72.1632,JORGE E. SALAZAR B.,700,18,4500,551
2012-3,9CU,COROCORA,Aeródromo,Privado,Casanare,Trinidad,5.3751,-70.969,DORA AVELLA VDA.DE PAN,740,18,5000,430
2010-12,9CZ,GRISMANIA,Aeródromo,Fumigación,Casanare,Aguazul,4.989,-72.5099,LUZ MARINA VARGAS,900,10,2000,669
2011-4,9DB,PALMAS DE TUMACO  -CA,Aeródromo,Privado,Nariño,San Andrés de Tumaco,1.496,-78.765,PALMAS DE TUMACO S.A.,225,10,500,136
2013-6,9DC,INGENIO LA CARMELITA,Aeródromo,Fumigación,Valle del Cauca,Riofrío,4.0727,-76.316,SOCIEDAD GARRIDO,300,10,500,3087
2010-12,9DG,EL LAGO - CA,Aeródromo,Privado,Tolima,Piedras,4.5575,-74.9003,BERNEY RODRIGUEZ,350,10,500,1050
2013-1,9DH,HACIENDA LA JOYA,Aeródromo,Privado,Bolívar,Córdoba,9.6179,-74.8367,TRIPENTA S.A.,720,10,2000,82
2008-2,9DI,SAN FELIPE,Aeródromo,Público,Guainía,San Felipe,1.915,-67.0776,GOBERNACION,1100,22,25000,312
2013-5,9DL,LA PASTORA,Aeródromo,Fumigación,Arauca,Arauca,6.798,-70.9777,SAO E.U,740,10,2000,600
2012-10,9DO,TALANQUERA,Aeródromo,Fumigación,Meta,Puerto López,4.141,-73.032,FERNANDO TOVAR TAMAYO,740,10,2000,179
2012-10,9LG,VILLA GEORGINA,Aeródromo,Fumigación,Casanare,Tauramena,4.3625,-74.3214,SANTIAGO PULIDO NIÑO,710,10,2000,594
2013-6,9LH,INGENIO PICHICHI,Aeródromo,Fumigación,Valle del Cauca,Guacarí,3.5347,-76.1653,INGENIO PICHICHI S.A.,340,10,500,3215
2012-8,9LI,SAN SEBASTIAN,Aeródromo,Fumigación,Meta,Cabuyaro,4.3356,-72.7803,NELLY ZARATE,740,10,2000,680
2013-5,9LJ,EL COROZO,Aeródromo,Fumigación,Arauca,Arauca,6.9136,-70.8562,NEBIO ECHEVERRY,750,10,2000,416
2013-5,9LK,HATO VIEJO,Aeródromo,Fumigación,Arauca,Arauca,6.8964,-70.7791,COMERCIALIZADORA EL PROVEEDOR LTDA.,750,10,2000,416
2012-9,9LN,GUADUALITO,Aeródromo,Fumigación,Casanare,Nunchía,5.4593,-71.912,CUPERTINO CUEVAS D.,700,10,3000,639
2013-6,9LP,LA REDENCION,Aeródromo,Privado,Casanare,Pore,5.6618,-71.8088,MARIA DEL S. MONTOYA,750,10,2000,636
2012-9,9LQ,LA PONDEROSA,Aeródromo,Privado,Meta,Puerto Gaitán,4.6316,-71.2141,MONICA COLOMBIA LTDA.,1200,18,3000,537
2009-8,9LR,LOS REMANSOS,Aeródromo,Fumigación,Santander,Cimitarra,6.5729,-74.2195,NELLY VALENCIA,700,10,3000,357
2012-12,9LS,SAN LUIS,Aeródromo,Fumigación,Norte de Santander,La Esperanza,7.6382,-73.4381,CRIAGAN S.A.,770,10,2000,308
2013-5,9LT,LOS GAVANES (LA MATA),Aeródromo,Fumigación,Arauca,Arauca,7.0093,-70.7743,FUMIGAR,760,12,3000,416
2012-10,9LU,EL RODEO,Aeródromo,Fumigación,Casanare,Tauramena,4.5772,-72.6914,JEREMIAS VACA RIAÑO,800,10,2000,746
2013-2,9LW,EL PALMAR,Aeródromo,Fumigación,Casanare,Nunchía,5.396,-71.9116,MAURICIO MEDINA NIÑO,700,10,3000,629
2013-4,9LX,LA GAITANA,Aeródromo,Fumigación,Meta,Cabuyaro,4.2253,-73.0298,P.VICENTE PERALES,800,10,4500,627
2013-9,9LY,SAN ISIDRO II,Aeródromo,Fumigación,Meta,Cumaral,4.1585,-73.3408,MARIA A PACHE OCHOA,890,10,2000,175
2012-11,9MA,EL DELIRIO,Aeródromo,Fumigación,Arauca,Arauca,6.9831,-70.882,CARMEN A. CABEZAS PEREZ,800,10,3000,430
2011-9,9MC,LA MONICA,Aeródromo,Fumigación,Casanare,Tauramena,4.6856,-72.6005,MAURICIO TORRES CUBIDES,840,10,2000,554
2011-9,9MD,LA ABEJITA,Aeródromo,Fumigación,Casanare,Monterrey,5.0095,-72.3234,JOSE A. VARGAS P.,840,10,2000,682
2013-6,9ME,CACHIMBALITO - CA,Aeródromo,Fumigación,Cauca,Santander de Quilichao,3.1653,-76.4738,INCAUCA,250,10,500,3241
2012-8,9MG,MADREVIEJA,Aeródromo,Fumigación,Casanare,Nunchía,5.4623,-71.9584,CELMIRA BARRAGAN F.,1000,10,2000,640
2013-4,9MH,SAN JUAN,Aeródromo,Fumigación,Meta,San Martín,3.7017,-73.3774,RODOLFO MENDEZ,740,10,2000,870
2012-4,9MI,LA FORTUNA,Aeródromo,Fumigación,Meta,Puerto López,4.1028,-72.978,SAAC S.A.S,780,15,3000,690
2012-3,9MJ,AGROFORESTAL MATA AZUL,Aeródromo,Privado,Vichada,Santa Rosalía,5.2897,-70.6337,AEROCIVIL,1200,20,6500,118
2012-8,9MK,VILLA ISABELLA,Aeródromo,Fumigación,Casanare,Trinidad,5.2993,-71.3434,RAFAEL QUESADA,800,10,2000,620
2012-8,9ML,MIRADOR,Aeródromo,Fumigación,Casanare,Trinidad,5.4326,-71.6009,ANGELICA VEGA,790,10,2000,620
2013-4,9MM,EL CARIBE,Aeródromo,Fumigación,Casanare,Paz de Ariporo,5.7198,-71.4963,REGULO GAMA OJEDA,800,10,2000,585
2013-10,9MN,EL PEDRAL BONANZA,Aeródromo,Fumigación,Santander,Puerto Wilches,7.2417,-73.8151,AEROCIVIL,800,10,3000,282
2012-8,9MO,SAN NICOLAS,Aeródromo,Fumigación,Casanare,Tauramena,4.4703,-72.4575,CARLOS E. CONTRERAS,840,10,2000,585
2013-4,9MP,LOS LOBOS,Aeródromo,Fumigación,Casanare,Tauramena,4.4748,-72.7478,AGROVIMART S.A.,800,10,3000,580
2012-12,9MQ,EL RASTRO,Aeródromo,Fumigación,Vichada,Cumaribo,4.7022,-70.8617,EL RASTRO 1 S.A.S.,800,15,2000,545
2012-12,9MR,LOS GANSOS,Aeródromo,Fumigación,Vichada,Cumaribo,4.6764,-70.9997,LOS GANSOS 1 S.A.S.,900,40,2000,544
2013-3,9MS,BETANIA,Aeródromo,Fumigación,Casanare,Trinidad,5.5319,-71.6812,DIOSELINO ACOSTA,800,10,2000,2030
2013-4,9MT,AGUAS CLARAS,Aeródromo,Fumigación,Santander,Sabana de Torres,7.2731,-73.5626,EDGAR MEZA ORTIZ,800,10,2500,652
2013-5,9MW,LAS NUBES,Aeródromo,Fumigación,Meta,Puerto Gaitán,4.2563,-71.7977,AGMO NUBES INVER.S.A.S,1000,18,4500,1030
2013-3,A01,CAMPO ALEGRE,Aeródromo,Público,Guainía,Inírida,1.8653,-69.0101,GOBERNACION,450,15,2000,577
2013-8,A02,CAÑO COLORADO,Aeródromo,Público,Guainía,Inírida,2.2774,-68.3599,GOBERNACION,1100,15,12202,413
2010-4,A03,FORTUL,Aeródromo,Público,Arauca,Fortul,6.7817,-71.7791,GOBERNACION,700,13,4000,730
2012-8,ABT,AGUA BLANCA,Aeródromo,Fumigación,Tolima,Piedras,4.4656,-74.9948,SOCIEDAD CULTIVOS SAN JOSE,680,10,2000,1994
1969-9,ACD,ALCIDES FERNANDEZ,Regional,Público,Chocó,Acandí,8.4969,-77.2739,INCORA LTDA,1200,16,2000,50
2012-5,ACI,EL MONASTERIO,Aeródromo,Fumigación,Meta,Acacías,3.9587,-73.4425,EFA LTDA.,680,10,2000,948
2007-8,ACL,AGUACLARA,Aeródromo,Público,Casanare,Sabanalarga,4.7333,-73.0583,CORREGIMIENTO,800,25,12202,1033
2011-9,ACP,ACAPULCO,Aeródromo,Fumigación,Casanare,Nunchía,5.4086,-71.8694,YOLANDA CAMACHO V.,870,10,2000,656
2008-3,ACR,ARARACUARA,Regional,Público,Caquetá,Solano,-0.6008,-72.3981,GOBERNACION,1300,30,27000,800
1968-5,ADZ,GUSTAVO ROJAS PINILLA,Internacional,Aerocivil,San Andrés islas,San Andrés,12.5837,-81.7113,AEROCIVIL,2380,36,2000,18
2013-3,AER,AEROFLANDES - C.A.,Aeródromo,Privado,Tolima,Flandes,4.2171,-74.8454,AEROFLANDES,240,10,500,1049
1972-10,AFI,EL RIO,Aeródromo,Aerocivil,Antioquia,Amalfi,6.8954,-75.0475,AEROCIVIL,970,20,3500,4831
2013-12,AGB,AGUA BLANCA,Aeródromo,Fumigación,Tolima,Espinal,4.1839,-74.8931,FARCA S.A. - COMODATO,750,10,2000,1095
1987-7,AGH,HACARITAMA,Aeródromo,Aerocivil,Cesar,Aguachica,8.2473,-73.5821,AEROCIVIL,1310,25,12202,700
2013-9,AGU,MARIA ANGELICA,Aeródromo,Fumigación,Casanare,Aguazul,5.0546,-72.4471,GERMAN ERAZO,800,15,2000,720
2013-9,ALV,EL DIAMANTE,Aeródromo,Fumigación,Tolima,Alvarado,4.5694,-74.9337,ELIAS ACOSTA Y CIA LTDA,620,10,2000,1312
1969-6,APO,ANTONIO ROLDAN BETANCOURT,Nacional,Aerocivil,Antioquia,Carepa,7.8118,-76.7164,AEROCIVIL,2180,30,2000,46
2002-9,ARO,ARBOLETES,Aeródromo,Público,Antioquia,Arboletes,8.8394,-76.43,MUNICIPIO,1100,10,6000,13
1969-9,ARQ,EL TRONCAL,Aeródromo,Aerocivil,Arauca,Arauquita,7.0211,-71.3889,AEROCIVIL,960,12,12202,509
1957-7,ATC,ATACO,Aeródromo,Público,Tolima,Ataco,3.5837,-75.3891,MUNICIPIO,800,15,4000,1519
1987-2,AUC,SANTIAGO PEREZ QUIROZ,Nacional,Aerocivil,Arauca,Arauca,7.0689,-70.737,AEROCIVIL,2100,30,2000,418
2013-12,AUR,EL CORAJE,Aeródromo,Privado,Magdalena,Ariguaní,10.0247,-74.067,CAMAGUEY S.A.,720,15,4000,282
2013-6,BAL,INGENIO RISARALDA,Aeródromo,Fumigación,Risaralda,Balboa,4.8948,-75.9044,INGENIO RISARALDA,250,10,500,3034
2012-12,BAN,BANCO LARGO,Aeródromo,Fumigación,Casanare,Nunchía,5.4631,-72.0631,JAVIER CHINCHILLA MUNAR,840,10,2000,692
2013-12,BAR,GUAICARAMO,Aeródromo,Fumigación,Meta,Barranca de Upía,4.4605,-72.9509,GUAICARAMO S.A.,800,18,5500,649
2008-12,BBA,PIZARRO,Aeródromo,Público,Chocó,Bajo Baudó,4.9608,-77.3633,MUNICIPIO,1000,10,2000,10
2008-7,BEC,BECERRIL,Aeródromo,Fumigación,Cesar,Becerril,9.6628,-73.2744,MUNICIPIO,1300,27,3500,320
1987-2,BIC,BERASTEGUI,Aeródromo,Aerocivil,Córdoba,Ciénaga de Oro,8.8845,-75.6835,AEROCIVIL,1530,20,2000,48
2013-1,BIZ,BIZERTA,Aeródromo,Fumigación,Casanare,Nunchía,5.4225,-71.9936,CELMIRA BARRAGAN F.,700,10,2000,639
1984-9,BMG,BARRANCO MINAS,Aeródromo,Público,Guainía,Barranco Minas,3.4907,-69.8097,GOBERNACION,900,15,2000,125
2012-4,BNI,BOLUGA,Aeródromo,Fumigación,Tolima,Venadillo,4.6903,-74.8894,MARGOT URIBE DE SAMPER Y CIA,640,10,3000,1092
2012-12,BNO,BUENOS AIRES,Aeródromo,Privado,Santander,Puerto Wilches,7.462,-73.7464,AGRICOLA BUFALERA DE COLOMBIA,1060,18,3500,229
2009-1,BNP,BUENOS AIRES -FADELCE,Aeródromo,Fumigación,Cesar,Pailitas,9.02,-73.6725,FADELCE LTDA,840,15,2000,82
1999-12,BOG,EL DORADO,Internacional,Aerocivil,"Bogotá, D.C.","Bogotá, D.C.",4.7017,-74.1469,AEROCIVIL,3800,60,2000,8356
1967-8,BUN,BUENAVENTURA-GERARDO TOBAR LOPEZ,Nacional,Aerocivil,Valle del Cauca,Buenaventura,3.8196,-76.9899,AEROCIVIL,1200,30,2000,44
1967-6,CIM,GUSTAVO ROJAS PINILLA,Aeródromo,Aerocivil,Santander,Cimitarra,6.3674,-73.9706,AEROCIVIL,1500,40,12202,735
1987-2,CLO,ALFONSO BONILLA ARAGON,Internacional,Aerocivil,Valle del Cauca,Palmira,3.5431,-76.3817,AEROCIVIL,3000,45,2000,3174
1987-2,COG,CONDOTO MANDINGA,Regional,Aerocivil,Chocó,Condoto,5.072,-76.6766,AEROCIVIL,1150,18,2000,166
1968-7,CPL,NAVAS PARDO,Aeródromo,Aerocivil,Tolima,Chaparral,3.7238,-75.4654,AEROCIVIL,1200,15,2000,2729
2012-11,CTG,RAFAEL NUÑEZ,Internacional,Aerocivil,Bolívar,Cartagena de Indias,10.442,-75.5123,AEROCIVIL,2380,45,2000,7
2013-4,CUC,CAMILO DAZA,Internacional,Aerocivil,Norte de Santander,San José de Cúcuta,7.9274,-72.5116,AEROCIVIL,1920,45,2000,1027
1988-7,CZU,LAS BRUJAS,Regional,Aerocivil,Sucre,Corozal,9.3325,-75.2853,AEROCIVIL,1430,22,2000,519
1974-12,EJA,YARIGUIES,Nacional,Aerocivil,Santander,Barrancabermeja,7.0244,-73.8068,AEROCIVIL,1800,45,61100,414
2010-10,EJU,EL JUNCAL,Aeródromo,Fumigación,Huila,Palermo,2.8471,-75.3133,ASOJUNCAL,620,10,2000,1509
1996-9,ELB,LAS FLORES,Aeródromo,Aerocivil,Magdalena,El Banco,9.0428,-73.9715,AEROCIVIL,1225,28,19045,110
1987-2,EYP,EL ALCARAVAN,Nacional,Aerocivil,Casanare,Yopal,5.3191,-72.3842,AEROCIVIL,2250,30,2000,1016
1987-2,FLA,GUSTAVO ARTUNDUAGA PAREDES,Nacional,Aerocivil,Caquetá,Florencia,1.589,-75.5643,AEROCIVIL,1500,30,2000,803
1960-8,GPI,JUAN CASIANO,Regional,Aerocivil,Cauca,Guapí,2.57,-77.898,AEROCIVIL,1300,16,2000,164
1987-2,GYM,FLAMINIO S. CAMACHO,Aeródromo,Aerocivil,Cundinamarca,Chía,4.8125,-74.0651,AEROCIVIL,1720,20,7000,8386
1980-10,HTZ,HATO COROZAL,Aeródromo,Aerocivil,Casanare,Hato Corozal,6.1535,-71.7616,AEROCIVIL,1040,14,12202,830
1987-2,IBE,PERALES,Nacional,Aerocivil,Tolima,Ibagué,4.4217,-75.1336,AEROCIVIL,1800,30,2000,3114
2012-8,IGO,JAIME ORTIZ BETANCUR,Aeródromo,Público,Antioquia,Chigorodó,7.6772,-76.683,MUNICIPIO,840,18,6400,170
1969-5,IPI,SAN LUIS,Internacional,Aerocivil,Nariño,Aldana,0.8619,-77.6718,AEROCIVIL,1770,28,2000,9740
1957-1,MFS,MIRAFLORES,Aeródromo,Público,Guaviare,Miraflores,1.3377,-71.9507,MUNICIPIO,1320,25,25000,730
1968-5,MGN,BARACOA,Aeródromo,Aerocivil,Bolívar,Magangué,9.2849,-74.8465,AEROCIVIL,1410,20,33112,195
1968-5,MMP,SAN BERNARDO,Aeródromo,Aerocivil,Bolívar,Mompós,9.2583,-74.4383,AEROCIVIL,1175,14,16300,72
2011-1,MQU,JOSE CELESTINO,Regional,Aerocivil,Tolima,San Sebastián de Mariquita,5.2126,-74.8837,AEROCIVIL,1790,45,2000,1531
1981-4,MTB,EL PINDO,Regional,Aerocivil,Córdoba,Montelíbano,7.9733,-75.4413,AEROCIVIL,1100,26,12202,160
1987-2,MTR,LOS GARZONES,Nacional,Aerocivil,Córdoba,Montería,8.8239,-75.8261,AEROCIVIL,1860,35,2000,19
1958-2,MVP,FABIO A. LEON BENTLEY,Regional,Aerocivil,Vaupés,Mitú,1.2535,-70.2341,MUNICIPIO,1880,30,2000,680
2004-8,NQU,REYES MURILLO,Regional,Aerocivil,Chocó,Nuquí,5.712,-77.2627,AEROCIVIL,930,10,2000,13
1990-10,NVA,BENITO SALAS,Internacional,Aerocivil,Huila,Neiva,2.9499,-75.2941,AEROCIVIL,1600,40,2000,1464
1971-9,OCV,AGUAS CLARAS,Regional,Aerocivil,Norte de Santander,Ocaña,8.3156,-73.3583,AEROCIVIL,1200,30,19000,3850
2007-2,ORU,EL MEDANO,Aeródromo,Privado,Casanare,Orocué,4.7621,-71.7184,ALBERTO MENDOZA Y OTRO,885,15,4950,485
1968-7,OTU,REMEDIOS OTU,Regional,Aerocivil,Antioquia,Remedios,7.0106,-74.7156,AEROCIVIL,950,12,2000,2058
1968-7,PCR,GERMAN OLANO,Regional,Aerocivil,Vichada,Puerto Carreño,6.185,-67.4925,MUNICIPIO,1800,30,2000,1915
2017-7,PIP,PAIPA JUAN JOSE RONDON,Aeródromo,Aerocivil,Boyacá,Paipa,5.7644,-73.1057,AEROCIVIL,1700,30,11400,8205
1968-3,PLT,LAS FLORES,Aeródromo,Aerocivil,Magdalena,Plato,9.7985,-74.7831,AEROCIVIL,1067,20,3500,86
1969-5,PPN,GUILLERMO LEON VALENCIA,Nacional,Aerocivil,Cauca,Popayán,2.4542,-76.6099,AEROCIVIL,1910,40,2000,5669
1957-4,PSO,ANTONIO NARIÑO,Nacional,Aerocivil,Nariño,Pasto,1.3964,-77.291,AEROCIVIL,2177,40,2000,5896
1974-10,PTL,CONTADOR,Regional,Aerocivil,Huila,Pitalito,1.8573,-76.0856,AEROCIVIL,1500,19,2000,4221
2013-11,PTW,GEMELOS DORADOS,Aeródromo,Privado,Santander,Puerto Wilches,7.2466,-73.7723,MILTON A. SALAZAR REY,850,15,5670,314
1981-9,PUU,TRES DE MAYO,Nacional,Aerocivil,Putumayo,Puerto Asís,0.5054,-76.5008,AEROCIVIL,1485,25,33112,809
1969-4,PVA,EL EMBRUJO,Nacional,Aerocivil,San Andrés islas,Providencia,13.3572,-81.3579,AEROCIVIL,1050,18,2000,10
1972-6,PZA,PAZ DE ARIPORO,Aeródromo,Aerocivil,Casanare,Paz de Ariporo,5.8819,-71.883,AEROCIVIL,1506,20,29000,878
1968-5,RAV,CRAVO NORTE,Aeródromo,Aerocivil,Arauca,Cravo Norte,6.3167,-70.2111,AEROCIVIL,1122,18,12202,336
1987-2,RCH,ALMIRANTE PADILLA,Internacional,Aerocivil,La Guajira,Riohacha,11.5262,-72.9267,MUNICIPIO,1900,30,2000,43
1983-9,RVE,COLONIZADORES,Regional,Aerocivil,Arauca,Arauca,6.9504,-71.8562,ECOPETROL,800,30,2000,678
1968-5,SMR,SIMON BOLIVAR,Internacional,Aerocivil,Magdalena,Santa Marta,11.1197,-74.2473,AEROCIVIL,1700,40,2000,22
1967-6,SNR,SAN MARTIN,Regional,Aerocivil,Meta,San Martín,3.7023,-73.6881,AEROCIVIL,700,15,3000,1380
1987-2,SVI,EDUARDO FALLA SOLANO,Regional,Aerocivil,Caquetá,San Vicente del Caguán,2.1522,-74.7663,AEROCIVIL,1500,26,2000,875
1973-11,TCO,LA FLORIDA,Nacional,Aerocivil,Nariño,San Andrés de Tumaco,1.8144,-78.749,AEROCIVIL,1600,30,2000,10
1967-6,TDA,TRINIDAD,Aeródromo,Aerocivil,Casanare,Trinidad,5.4349,-71.6584,AEROCIVIL,1148,10,12202,560
2000-12,TLU,TOLU,Regional,Aerocivil,Sucre,Tolú Viejo,9.5095,-75.5859,AEROCIVIL,1350,16,12202,15
1968-5,TME,GUSTAVO VARGAS,Regional,Aerocivil,Arauca,Tame,6.451,-71.7601,AEROCIVIL,2000,30,33112,1199
1998-11,TTM,TABLON DE TAMARA,Aeródromo,Aerocivil,Casanare,Támara,5.7267,-72.1006,AEROCIVIL,1317,30,12202,1650
2010-12,UIB,EL CARAÑO,Nacional,Aerocivil,Chocó,Quibdó,5.6908,-76.6412,AEROCIVIL,1300,30,63196,192
1968-7,URR,ALI PIEDRAHITA,Regional,Aerocivil,Antioquia,Urrao,6.3273,-76.1409,AEROCIVIL,865,10,2000,6104
1972-5,VGP,CANANGUCHAL,Regional,Aerocivil,Putumayo,Villagarzón,0.9785,-76.6064,AEROCIVIL,1300,20,2000,397
1969-11,VUP,ALFONSO LOPEZ PUMAREJO,Nacional,Aerocivil,Cesar,Valledupar,10.4351,-73.2494,AEROCIVIL,2100,30,2000,450
1968-6,VVC,VANGUARDIA,Nacional,Aerocivil,Meta,Villavicencio,4.1684,-73.6147,AEROCIVIL,1940,30,2000,1366
2012-5,VVU,SANTA ISABEL,Aeródromo,Fumigación,Meta,Villavicencio,3.9873,-73.2091,EFA LTDA.,800,10,2000,689
1997-9,YAP,YAPIMA,Aeródromo,Público,Vaupés,Mitú,1.0825,-69.4914,RESGUARDO INDIGENA,500,15,2300,600
2013-9,YOP,TROMPILLOS,Aeródromo,Fumigación,Casanare,Yopal,5.0932,-72.1807,ALEXANDER RIVERA,800,15,2000,623
2012-8,YPP,GERMAN ALBERTO,Aeródromo,Fumigación,Casanare,Yopal,5.1875,-72.3191,JOSE NELSON PEREZ R.,800,15,2000,735
1968-1,ZPS,GUILLERMO GOMEZ ORTIZ,Aeródromo,Público,Santander,Zapatoca,6.7674,-73.2846,MUNICIPIO,700,14,2300,5918
